[{"direccion":"Carrera 9 # 15 sur 04","nombre":"Mr Pork Express","latitud":"3.8866861","longitud":"-76.2960572","sitio_web":"NA","telefono":"3107505686","horario":"00:00-12:00 17:00-00:00"}
,{"direccion":"Carrera 9 # 8 Sur 06","nombre":"Molle Pizza","latitud":"3.8896664","longitud":"-76.29759899999999","sitio_web":"NA","telefono":"(2) 2270826","horario":"15:00a11:00"}
,{"direccion":"calle 7sur # 5bis 26","nombre":"Maria Mulata Urbana","latitud":"3.8901362","longitud":"-76.29362800000001","sitio_web":"NA","telefono":"315 4149713","horario":"Abierto 24 horas"}
,{"direccion":"Cra. 20","nombre":"calle 7sur # 5bis 26","latitud":"3.896874399999999","longitud":"-76.30760269999996","sitio_web":"NA","telefono":"321 8428551","horario":"Abierto de 12:00 a 22:00"}
,{"direccion":"# a 10-48, Cl. 1 Sur #102","nombre":"Restaurante Don Karlos Del Rio","latitud":"3.8939946","longitud":"-76.29985620000002","sitio_web":"NA","telefono":"(2) 2370635","horario":"11:30 a 23:59"}
,{"direccion":"Cl. 1 Sur,","nombre":"Burako Gourmet Bar","latitud":"3.892837099999999","longitud":"-76.2962503","sitio_web":"NA","telefono":"(2) 2388384","horario":"12:00 a 00:00"}
,{"direccion":"# a 9-93,, Cl. 1 #91, ","nombre":"Costiky","latitud":"3.8942701","longitud":"-76.29924160000002","sitio_web":"NA","telefono":"318 6930957","horario":"Abierto de 12:00 a 22:00"}
,{"direccion":"a 17-116, Cl. 1 #1724","nombre":"a 17-116, Cl. 1 #1724,","latitud":"3.8968154","longitud":"-76.30649119999998","sitio_web":"NA","telefono":"(2) 2274141","horario":"Abierto 24 horas"}
,{"direccion":"Cl. 4 #8-91","nombre":"Restaurante San Fermín","latitud":"3.8960805","longitud":"-76.29782269999998","sitio_web":"NA","telefono":"2388220","horario":"Abierto de 11:00 a 22:00"}
,{"direccion":"Cra. 19 #3-36","nombre":"Restaurante La Bohemia Parrilla Bar","latitud":"3.8982733","longitud":"-76.30706650000002","sitio_web":"NA","telefono":"315 4717428","horario":"Abierto de 10:00 a 23:00"}
,{"direccion":"Cl. 5 #11-15","nombre":"RESTAURANTE MANA","latitud":"3.8976455","longitud":"-76.2999734","sitio_web":"NA","telefono":"317 2503616","horario":"Abierto de 08:00 a 22:00"}
,{"direccion":"Cra. 13 #483","nombre":"Holy Water Ale Café","latitud":"3.8978788","longitud":"-76.30129090000003","sitio_web":"NA","telefono":"(2) 2367752","horario":"Abierto de 12:00 a 22:00"}
,{"direccion":"Cra. 16 #543","nombre":"Green Food,"latitud":"3.899371099999999","longitud":"-76.3037124","sitio_web":"NA","telefono":"316 5274139","horario":"Abierto de 11:00 a 14:30"}
,{"direccion":"Cra. 8 #929","nombre":"Metro Chuleta","latitud":"3.9002824","longitud":"-76.29566060000002","sitio_web":"NA","telefono":"(2) 2365175","horario":"Abierto de 09:00 a 23:00"}
,{"direccion":"Cl. 10 #13-38","nombre":"Restaurante Romar De Buga","latitud":"3.9026542","longitud":"-76.29997630000003","sitio_web":"NA","telefono":"(2) 2362079","horario":"Abierto de 08:00 a 14:30"}
,{"direccion":"Cl. 14 #841","nombre":"DelicPizza","latitud":"3.9043948","longitud":"-76.29424699999998","sitio_web":"NA","telefono":"(2) 2366834","horario":"Abierto de 08:00 a 22:00"}
,{"direccion":"Carrera 18 #19-57","nombre":"Ali Baba","latitud":"3.9120055","longitud":"-76.2997982","sitio_web":"NA","telefono":"(2) 2277467","horario":"Abierto de 12:00 a 22:00"}
]